{"type":"FeatureCollection","features":[{"type":"Feature","geometry":{"type":"Point","coordinates":[8.7219317409402,49.1544084236863]},"properties":{"stop_id":"de:08215:13501:1:1","stop_name":"Neuenbürg Raiffeisenbank","zone_id":"0256","stop_url":"","location_type":null,"parent_station":"","agency_key":"kvv","agency_name":"VBK GmbH","routes":[{"route_id":"6-135-C-s17-1","route_short_name":"135 (AVG)","route_long_name":""},{"route_id":"6-139-C-s17-1","route_short_name":"139 (AVG)","route_long_name":""}]}},{"type":"Feature","geometry":{"type":"Point","coordinates":[8.69010443041942,49.147263681867]},"properties":{"stop_id":"de:08215:13502:1:1","stop_name":"Oberöwisheim Friedhof","zone_id":"0256","stop_url":"","location_type":null,"parent_station":"Parent13502","agency_key":"kvv","agency_name":"VBK GmbH","routes":[{"route_id":"6-135-C-s17-1","route_short_name":"135 (AVG)","route_long_name":""},{"route_id":"6-139-C-s17-1","route_short_name":"139 (AVG)","route_long_name":""}]}},{"type":"Feature","geometry":{"type":"Point","coordinates":[8.69117342560767,49.1466114378304]},"properties":{"stop_id":"de:08215:13502:2:4","stop_name":"Oberöwisheim Friedhof","zone_id":"0256","stop_url":"","location_type":null,"parent_station":"Parent13502","agency_key":"kvv","agency_name":"VBK GmbH","routes":[{"route_id":"6-135-C-s17-1","route_short_name":"135 (AVG)","route_long_name":""},{"route_id":"6-139-C-s17-1","route_short_name":"139 (AVG)","route_long_name":""}]}},{"type":"Feature","geometry":{"type":"Point","coordinates":[8.69244903331129,49.1506892911052]},"properties":{"stop_id":"de:08215:31036:1:1","stop_name":"Oberöwisheim Feuerwehrhaus","zone_id":"0256","stop_url":"","location_type":null,"parent_station":"Parent31036","agency_key":"kvv","agency_name":"VBK GmbH","routes":[{"route_id":"6-135-C-s17-1","route_short_name":"135 (AVG)","route_long_name":""},{"route_id":"6-139-C-s17-1","route_short_name":"139 (AVG)","route_long_name":""}]}},{"type":"Feature","geometry":{"type":"Point","coordinates":[8.68913424991243,49.1506187835254]},"properties":{"stop_id":"de:08215:31037:1:1","stop_name":"Oberöwisheim Schule","zone_id":"0256","stop_url":"","location_type":null,"parent_station":"","agency_key":"kvv","agency_name":"VBK GmbH","routes":[{"route_id":"6-135-C-s17-1","route_short_name":"135 (AVG)","route_long_name":""},{"route_id":"6-139-C-s17-1","route_short_name":"139 (AVG)","route_long_name":""}]}},{"type":"Feature","geometry":{"type":"Point","coordinates":[8.68684354593761,49.1403412306283]},"properties":{"stop_id":"de:08215:32004:2:2","stop_name":"Oberöwisheim","zone_id":"0256","stop_url":"","location_type":null,"parent_station":"Parent32004","agency_key":"kvv","agency_name":"VBK GmbH","routes":[{"route_id":"6-135-C-s17-1","route_short_name":"135 (AVG)","route_long_name":""},{"route_id":"6-139-C-s17-1","route_short_name":"139 (AVG)","route_long_name":""}]}}]}