{"type":"FeatureCollection","features":[{"type":"Feature","geometry":{"type":"Point","coordinates":[8.7219317409402,49.1544084236863]},"properties":{"stop_id":"de:08215:13501:1:1","stop_name":"Neuenbürg Raiffeisenbank","zone_id":"0256","stop_url":"","location_type":null,"parent_station":"","agency_key":"kvv","agency_name":"VBK GmbH","routes":[{"route_id":"6-135-C-s17-1","route_short_name":"135 (AVG)","route_long_name":""},{"route_id":"6-139-C-s17-1","route_short_name":"139 (AVG)","route_long_name":""}]}},{"type":"Feature","geometry":{"type":"Point","coordinates":[8.69000561573815,49.1470697723746]},"properties":{"stop_id":"de:08215:13502:1:2","stop_name":"Oberöwisheim Friedhof","zone_id":"0256","stop_url":"","location_type":null,"parent_station":"Parent13502","agency_key":"kvv","agency_name":"VBK GmbH","routes":[{"route_id":"6-135-C-s17-1","route_short_name":"135 (AVG)","route_long_name":""},{"route_id":"6-139-C-s17-1","route_short_name":"139 (AVG)","route_long_name":""}]}},{"type":"Feature","geometry":{"type":"Point","coordinates":[8.69119139191335,49.1466290661605]},"properties":{"stop_id":"de:08215:13502:2:3","stop_name":"Oberöwisheim Friedhof","zone_id":"0256","stop_url":"","location_type":null,"parent_station":"Parent13502","agency_key":"kvv","agency_name":"VBK GmbH","routes":[{"route_id":"6-135-C-s17-1","route_short_name":"135 (AVG)","route_long_name":""}]}},{"type":"Feature","geometry":{"type":"Point","coordinates":[8.69242208385277,49.1507069179845]},"properties":{"stop_id":"de:08215:31036:1:2","stop_name":"Oberöwisheim Feuerwehrhaus","zone_id":"0256","stop_url":"","location_type":null,"parent_station":"Parent31036","agency_key":"kvv","agency_name":"VBK GmbH","routes":[{"route_id":"6-135-C-s17-1","route_short_name":"135 (AVG)","route_long_name":""},{"route_id":"6-139-C-s17-1","route_short_name":"139 (AVG)","route_long_name":""}]}},{"type":"Feature","geometry":{"type":"Point","coordinates":[8.68684354593761,49.1403412306283]},"properties":{"stop_id":"de:08215:32004:2:2","stop_name":"Oberöwisheim","zone_id":"0256","stop_url":"","location_type":null,"parent_station":"Parent32004","agency_key":"kvv","agency_name":"VBK GmbH","routes":[{"route_id":"6-135-C-s17-1","route_short_name":"135 (AVG)","route_long_name":""},{"route_id":"6-139-C-s17-1","route_short_name":"139 (AVG)","route_long_name":""}]}}]}