{"type":"FeatureCollection","features":[{"type":"Feature","geometry":{"type":"Point","coordinates":[8.4734038344011,49.2779501896881]},"properties":{"stop_id":"de:08215:32501","stop_name":"Rheinhausen Ostenstraße","zone_id":"0253","stop_url":"","location_type":null,"parent_station":"","agency_key":"kvv","agency_name":"VBK GmbH","routes":[{"route_id":"8-128-C-s17-3","route_short_name":"128 (RVS)","route_long_name":""},{"route_id":"8-194-C-s17-1","route_short_name":"194 (RVS)","route_long_name":""}]}},{"type":"Feature","geometry":{"type":"Point","coordinates":[8.48263851552313,49.2607934641114]},"properties":{"stop_id":"de:08215:32504","stop_name":"Oberhausen Kirchplatz","zone_id":"0253","stop_url":"","location_type":null,"parent_station":"","agency_key":"kvv","agency_name":"VBK GmbH","routes":[{"route_id":"8-128-C-s17-3","route_short_name":"128 (RVS)","route_long_name":""},{"route_id":"8-194-C-s17-1","route_short_name":"194 (RVS)","route_long_name":""}]}},{"type":"Feature","geometry":{"type":"Point","coordinates":[8.49246608473277,49.2556927746245]},"properties":{"stop_id":"de:08215:32505","stop_name":"Oberhausen Schule","zone_id":"0253","stop_url":"","location_type":null,"parent_station":"","agency_key":"kvv","agency_name":"VBK GmbH","routes":[{"route_id":"8-128-C-s17-3","route_short_name":"128 (RVS)","route_long_name":""},{"route_id":"8-194-C-s17-1","route_short_name":"194 (RVS)","route_long_name":""}]}},{"type":"Feature","geometry":{"type":"Point","coordinates":[8.47859609674403,49.2664270612686]},"properties":{"stop_id":"de:08215:32507","stop_name":"Oberhausen Weiherweg","zone_id":"0253","stop_url":"","location_type":null,"parent_station":"","agency_key":"kvv","agency_name":"VBK GmbH","routes":[{"route_id":"8-128-C-s17-3","route_short_name":"128 (RVS)","route_long_name":""},{"route_id":"8-194-C-s17-1","route_short_name":"194 (RVS)","route_long_name":""}]}},{"type":"Feature","geometry":{"type":"Point","coordinates":[8.47481418939736,49.2798079395824]},"properties":{"stop_id":"de:08215:32605:0:2","stop_name":"Rheinhausen Tullahalle","zone_id":"0253","stop_url":"","location_type":null,"parent_station":"Parent32605","agency_key":"kvv","agency_name":"VBK GmbH","routes":[{"route_id":"8-128-C-s17-3","route_short_name":"128 (RVS)","route_long_name":""},{"route_id":"8-194-C-s17-1","route_short_name":"194 (RVS)","route_long_name":""}]}},{"type":"Feature","geometry":{"type":"Point","coordinates":[8.47459859372914,49.267874926671]},"properties":{"stop_id":"de:08215:34824","stop_name":"Oberhausen Tonwerk","zone_id":"0253","stop_url":"","location_type":null,"parent_station":"","agency_key":"kvv","agency_name":"VBK GmbH","routes":[{"route_id":"8-194-C-s17-1","route_short_name":"194 (RVS)","route_long_name":""}]}},{"type":"Feature","geometry":{"type":"Point","coordinates":[8.48086883441317,49.2538458432741]},"properties":{"stop_id":"de:08215:34849:1:1","stop_name":"Oberhausen Jahnstraße","zone_id":"0253","stop_url":"","location_type":null,"parent_station":"Parent34849","agency_key":"kvv","agency_name":"VBK GmbH","routes":[{"route_id":"8-194-C-s17-1","route_short_name":"194 (RVS)","route_long_name":""}]}},{"type":"Feature","geometry":{"type":"Point","coordinates":[8.46122267914674,49.2351146426898]},"properties":{"stop_id":"de:08215:7718:0:3","stop_name":"Philippsburg Schulzentrum","zone_id":"0253","stop_url":"","location_type":null,"parent_station":"Parent7718","agency_key":"kvv","agency_name":"VBK GmbH","routes":[{"route_id":"6-193-C-s17-1","route_short_name":"193 (AVG)","route_long_name":""},{"route_id":"8-127-C-s17-1","route_short_name":"127 (RVS)","route_long_name":""},{"route_id":"8-194-C-s17-1","route_short_name":"194 (RVS)","route_long_name":""}]}}]}