{"type":"FeatureCollection","features":[{"type":"Feature","geometry":{"type":"Point","coordinates":[8.40076606051708,49.0969098906993]},"properties":{"stop_id":"de:08215:1132:3:B36","stop_name":"Leopoldshafen Leopoldstr.","zone_id":"0233","stop_url":"","location_type":null,"parent_station":"Parent1132","agency_key":"kvv","agency_name":"VBK GmbH","routes":[{"route_id":"8-195-C-s17-1","route_short_name":"195 (RVS)","route_long_name":""}]}},{"type":"Feature","geometry":{"type":"Point","coordinates":[8.46707071164717,49.0731056011691]},"properties":{"stop_id":"de:08215:32033:2:11","stop_name":"Blankenloch Nord","zone_id":"0236","stop_url":"","location_type":null,"parent_station":"Parent32033","agency_key":"kvv","agency_name":"VBK GmbH","routes":[{"route_id":"8-121-C-s17-2","route_short_name":"121 (RVS)","route_long_name":""},{"route_id":"8-195-C-s17-1","route_short_name":"195 (RVS)","route_long_name":""}]}},{"type":"Feature","geometry":{"type":"Point","coordinates":[8.46499560334057,49.0662551945567]},"properties":{"stop_id":"de:08215:32239:30","stop_name":"Blankenloch","zone_id":"0236","stop_url":"","location_type":null,"parent_station":"Parent32239","agency_key":"kvv","agency_name":"VBK GmbH","routes":[{"route_id":"8-195-C-s17-1","route_short_name":"195 (RVS)","route_long_name":""}]}},{"type":"Feature","geometry":{"type":"Point","coordinates":[8.45991113883174,49.0803081027313]},"properties":{"stop_id":"de:08215:32432:1:2","stop_name":"Blankenloch Kreisel/L559","zone_id":"0236","stop_url":"","location_type":null,"parent_station":"Parent32432","agency_key":"kvv","agency_name":"VBK GmbH","routes":[{"route_id":"8-195-C-s17-1","route_short_name":"195 (RVS)","route_long_name":""}]}},{"type":"Feature","geometry":{"type":"Point","coordinates":[8.46213896073667,49.0767187512888]},"properties":{"stop_id":"de:08215:32703:1:2","stop_name":"Blankenloch Brücke L559","zone_id":"0236","stop_url":"","location_type":null,"parent_station":"Parent32703","agency_key":"kvv","agency_name":"VBK GmbH","routes":[{"route_id":"8-121-C-s17-2","route_short_name":"121 (RVS)","route_long_name":""},{"route_id":"8-195-C-s17-1","route_short_name":"195 (RVS)","route_long_name":""}]}},{"type":"Feature","geometry":{"type":"Point","coordinates":[8.42812874407517,49.091292259986]},"properties":{"stop_id":"de:08215:7619:0:2","stop_name":"KIT-Campus Nord Südtor","zone_id":"0236","stop_url":"","location_type":null,"parent_station":"Parent7619","agency_key":"kvv","agency_name":"VBK GmbH","routes":[{"route_id":"8-121-C-s17-2","route_short_name":"121 (RVS)","route_long_name":""},{"route_id":"8-125-C-s17-3","route_short_name":"125 (RVS/Hassis)","route_long_name":""},{"route_id":"8-125-C-s17-4","route_short_name":"125 (RVS/Hassis)","route_long_name":""},{"route_id":"8-195-C-s17-1","route_short_name":"195 (RVS)","route_long_name":""}]}}]}