{"type":"FeatureCollection","features":[{"type":"Feature","geometry":{"type":"Point","coordinates":[8.34431592805515,48.6367812566218]},"properties":{"stop_id":"de:08216:30169","stop_name":"Raumünzach Siedlung","zone_id":"0380","stop_url":"","location_type":null,"parent_station":"","agency_key":"kvv","agency_name":"VBK GmbH","routes":[{"route_id":"8-246-C-s17-1","route_short_name":"246 (RVS)","route_long_name":""},{"route_id":"8-263-C-s17-1","route_short_name":"263 (RVS)","route_long_name":""}]}},{"type":"Feature","geometry":{"type":"Point","coordinates":[8.27754415297725,48.6186187283719]},"properties":{"stop_id":"de:08216:30170","stop_name":"Hundsbach Am Skihang","zone_id":"0380","stop_url":"","location_type":null,"parent_station":"","agency_key":"kvv","agency_name":"VBK GmbH","routes":[{"route_id":"8-246-C-s17-1","route_short_name":"246 (RVS)","route_long_name":""}]}},{"type":"Feature","geometry":{"type":"Point","coordinates":[8.27697821434818,48.6103041779425]},"properties":{"stop_id":"de:08216:30171:0:2","stop_name":"Hundsbach Kapellenstraße","zone_id":"0380","stop_url":"","location_type":null,"parent_station":"Parent30171","agency_key":"kvv","agency_name":"VBK GmbH","routes":[{"route_id":"8-246-C-s17-1","route_short_name":"246 (RVS)","route_long_name":""}]}},{"type":"Feature","geometry":{"type":"Point","coordinates":[8.27210934550758,48.6074175209725]},"properties":{"stop_id":"de:08216:30172:0:2","stop_name":"Hundsbach Biberach","zone_id":"0380","stop_url":"","location_type":null,"parent_station":"Parent30172","agency_key":"kvv","agency_name":"VBK GmbH","routes":[{"route_id":"8-246-C-s17-1","route_short_name":"246 (RVS)","route_long_name":""}]}},{"type":"Feature","geometry":{"type":"Point","coordinates":[8.24644447783671,48.6091340920214]},"properties":{"stop_id":"de:08216:30173","stop_name":"Hundsb. Viehläger Wendeplatz","zone_id":"0380","stop_url":"","location_type":null,"parent_station":"","agency_key":"kvv","agency_name":"VBK GmbH","routes":[{"route_id":"8-246-C-s17-1","route_short_name":"246 (RVS)","route_long_name":""},{"route_id":"8-263-C-s17-1","route_short_name":"263 (RVS)","route_long_name":""}]}},{"type":"Feature","geometry":{"type":"Point","coordinates":[8.25647865956172,48.6075422564749]},"properties":{"stop_id":"de:08216:32174:0:2","stop_name":"Hundsb. Viehläger Abz. Biberk.","zone_id":"0380","stop_url":"","location_type":null,"parent_station":"Parent32174","agency_key":"kvv","agency_name":"VBK GmbH","routes":[{"route_id":"8-246-C-s17-1","route_short_name":"246 (RVS)","route_long_name":""}]}},{"type":"Feature","geometry":{"type":"Point","coordinates":[8.28001452000893,48.6137133092342]},"properties":{"stop_id":"de:08216:32175:0:2","stop_name":"Hundsbach Kirche","zone_id":"0380","stop_url":"","location_type":null,"parent_station":"Parent32175","agency_key":"kvv","agency_name":"VBK GmbH","routes":[{"route_id":"8-246-C-s17-1","route_short_name":"246 (RVS)","route_long_name":""}]}},{"type":"Feature","geometry":{"type":"Point","coordinates":[8.27204646343768,48.6193847859069]},"properties":{"stop_id":"de:08216:32176:0:2","stop_name":"Hundsbach Brücke","zone_id":"0380","stop_url":"","location_type":null,"parent_station":"Parent32176","agency_key":"kvv","agency_name":"VBK GmbH","routes":[{"route_id":"8-246-C-s17-1","route_short_name":"246 (RVS)","route_long_name":""}]}},{"type":"Feature","geometry":{"type":"Point","coordinates":[8.26236262467352,48.6239987005151]},"properties":{"stop_id":"de:08216:32177:0:2","stop_name":"Hundsbach Aschenplatz","zone_id":"0380","stop_url":"","location_type":null,"parent_station":"Parent32177","agency_key":"kvv","agency_name":"VBK GmbH","routes":[{"route_id":"8-246-C-s17-1","route_short_name":"246 (RVS)","route_long_name":""}]}},{"type":"Feature","geometry":{"type":"Point","coordinates":[8.31630645749241,48.6318657287861]},"properties":{"stop_id":"de:08216:32183","stop_name":"Schindelbronn","zone_id":"0380","stop_url":"","location_type":null,"parent_station":"","agency_key":"kvv","agency_name":"VBK GmbH","routes":[{"route_id":"8-246-C-s17-1","route_short_name":"246 (RVS)","route_long_name":""}]}},{"type":"Feature","geometry":{"type":"Point","coordinates":[8.35121498943815,48.644397004142]},"properties":{"stop_id":"de:08216:32184:2","stop_name":"Raumünzach","zone_id":"0380","stop_url":"","location_type":null,"parent_station":"Parent32184","agency_key":"kvv","agency_name":"VBK GmbH","routes":[{"route_id":"8-246-C-s17-1","route_short_name":"246 (RVS)","route_long_name":""},{"route_id":"8-263-C-s17-1","route_short_name":"263 (RVS)","route_long_name":""}]}},{"type":"Feature","geometry":{"type":"Point","coordinates":[8.35875185467297,48.6782769934419]},"properties":{"stop_id":"de:08216:32185","stop_name":"Forbach Rathaus","zone_id":"0380","stop_url":"","location_type":null,"parent_station":"","agency_key":"kvv","agency_name":"VBK GmbH","routes":[{"route_id":"8-246-C-s17-1","route_short_name":"246 (RVS)","route_long_name":""},{"route_id":"8-263-C-s17-1","route_short_name":"263 (RVS)","route_long_name":""}]}},{"type":"Feature","geometry":{"type":"Point","coordinates":[8.30228375590535,48.6264628450521]},"properties":{"stop_id":"de:08216:32186","stop_name":"Pandurenbronn","zone_id":"0380","stop_url":"","location_type":null,"parent_station":"","agency_key":"kvv","agency_name":"VBK GmbH","routes":[{"route_id":"8-246-C-s17-1","route_short_name":"246 (RVS)","route_long_name":""}]}},{"type":"Feature","geometry":{"type":"Point","coordinates":[8.35502384624335,48.6240343275583]},"properties":{"stop_id":"de:08216:32187:2","stop_name":"Kirschbaumwasen","zone_id":"0380","stop_url":"","location_type":null,"parent_station":"Parent32187","agency_key":"kvv","agency_name":"VBK GmbH","routes":[{"route_id":"8-246-C-s17-1","route_short_name":"246 (RVS)","route_long_name":""}]}},{"type":"Feature","geometry":{"type":"Point","coordinates":[8.35280500749127,48.6661041791257]},"properties":{"stop_id":"de:08216:32188","stop_name":"Forbach Holdereck","zone_id":"0380","stop_url":"","location_type":null,"parent_station":"","agency_key":"kvv","agency_name":"VBK GmbH","routes":[{"route_id":"8-246-C-s17-1","route_short_name":"246 (RVS)","route_long_name":""},{"route_id":"8-263-C-s17-1","route_short_name":"263 (RVS)","route_long_name":""}]}},{"type":"Feature","geometry":{"type":"Point","coordinates":[8.2879017282046,48.6201864615758]},"properties":{"stop_id":"de:08216:32189","stop_name":"Hochries","zone_id":"0380","stop_url":"","location_type":null,"parent_station":"","agency_key":"kvv","agency_name":"VBK GmbH","routes":[{"route_id":"8-246-C-s17-1","route_short_name":"246 (RVS)","route_long_name":""}]}},{"type":"Feature","geometry":{"type":"Point","coordinates":[8.32583758265825,48.635635530258]},"properties":{"stop_id":"de:08216:32190","stop_name":"Erbersbronn","zone_id":"0380","stop_url":"","location_type":null,"parent_station":"","agency_key":"kvv","agency_name":"VBK GmbH","routes":[{"route_id":"8-246-C-s17-1","route_short_name":"246 (RVS)","route_long_name":""}]}},{"type":"Feature","geometry":{"type":"Point","coordinates":[8.36093476081368,48.6808630410595]},"properties":{"stop_id":"de:08216:32191:2","stop_name":"Forbach Bahnhof","zone_id":"0380","stop_url":"","location_type":null,"parent_station":"Parent32191","agency_key":"kvv","agency_name":"VBK GmbH","routes":[{"route_id":"31-248-C-s17-1","route_short_name":"248 (Heberle)","route_long_name":""},{"route_id":"8-246-C-s17-1","route_short_name":"246 (RVS)","route_long_name":""},{"route_id":"8-263-C-s17-1","route_short_name":"263 (RVS)","route_long_name":""}]}},{"type":"Feature","geometry":{"type":"Point","coordinates":[8.33937519399181,48.6391319919437]},"properties":{"stop_id":"de:08216:32192","stop_name":"Raumünzach Wasserfall","zone_id":"0380","stop_url":"","location_type":null,"parent_station":"","agency_key":"kvv","agency_name":"VBK GmbH","routes":[{"route_id":"8-246-C-s17-1","route_short_name":"246 (RVS)","route_long_name":""},{"route_id":"8-263-C-s17-1","route_short_name":"263 (RVS)","route_long_name":""}]}},{"type":"Feature","geometry":{"type":"Point","coordinates":[8.3562186055714,48.6335221014473]},"properties":{"stop_id":"de:08216:33118","stop_name":"Kirschbaumwasen Kaltenbach","zone_id":"0380","stop_url":"","location_type":null,"parent_station":"","agency_key":"kvv","agency_name":"VBK GmbH","routes":[{"route_id":"8-246-C-s17-1","route_short_name":"246 (RVS)","route_long_name":""}]}},{"type":"Feature","geometry":{"type":"Point","coordinates":[8.35800625298704,48.6808630410595]},"properties":{"stop_id":"de:08216:34673","stop_name":"Forbach Schule","zone_id":"0380","stop_url":"","location_type":null,"parent_station":"","agency_key":"kvv","agency_name":"VBK GmbH","routes":[{"route_id":"31-248-C-s17-1","route_short_name":"248 (Heberle)","route_long_name":""},{"route_id":"8-246-C-s17-1","route_short_name":"246 (RVS)","route_long_name":""}]}}]}