{"type":"FeatureCollection","features":[{"type":"Feature","geometry":{"type":"Point","coordinates":[8.39345377410333,48.8649073118769]},"properties":{"stop_id":"de:08215:8129:1:1","stop_name":"Völkersbach Am Sportplatz","zone_id":"0241","stop_url":"","location_type":null,"parent_station":"","agency_key":"kvv","agency_name":"VBK GmbH","routes":[{"route_id":"8-101-C-s17-1","route_short_name":"101 (RVS)","route_long_name":""},{"route_id":"8-253-C-s17-1","route_short_name":"253 (RVS)","route_long_name":""}]}},{"type":"Feature","geometry":{"type":"Point","coordinates":[8.31256946590995,48.8147405296331]},"properties":{"stop_id":"de:08216:31862","stop_name":"Bad Rotenfels Schulz. Dachgrube","zone_id":"0371","stop_url":"","location_type":null,"parent_station":"","agency_key":"kvv","agency_name":"VBK GmbH","routes":[{"route_id":"11-214-C-s17-3","route_short_name":"214 (BBL)","route_long_name":""},{"route_id":"8-240-S-s17-1","route_short_name":"240s (RVS)","route_long_name":""},{"route_id":"8-251-C-s17-1","route_short_name":"251 (RVS)","route_long_name":""},{"route_id":"8-252-S-s17-1","route_short_name":"252s (RVS)","route_long_name":""},{"route_id":"8-253-C-s17-1","route_short_name":"253 (RVS)","route_long_name":""}]}},{"type":"Feature","geometry":{"type":"Point","coordinates":[8.38716556711362,48.8382781702808]},"properties":{"stop_id":"de:08216:32146:1:1","stop_name":"Moosbronn Kirche","zone_id":"0371","stop_url":"","location_type":null,"parent_station":"Parent32146","agency_key":"kvv","agency_name":"VBK GmbH","routes":[{"route_id":"5-113-C-s17-1","route_short_name":"113 (BVN)","route_long_name":""},{"route_id":"5-113-C-s17-2","route_short_name":"113 (BVN)","route_long_name":""},{"route_id":"8-101-C-s17-1","route_short_name":"101 (RVS)","route_long_name":""},{"route_id":"8-253-C-s17-1","route_short_name":"253 (RVS)","route_long_name":""}]}},{"type":"Feature","geometry":{"type":"Point","coordinates":[8.34903208329744,48.8166925633956]},"properties":{"stop_id":"de:08216:32147","stop_name":"Michelbach Wiesental","zone_id":"0371","stop_url":"","location_type":null,"parent_station":"","agency_key":"kvv","agency_name":"VBK GmbH","routes":[{"route_id":"8-253-C-s17-1","route_short_name":"253 (RVS)","route_long_name":""}]}},{"type":"Feature","geometry":{"type":"Point","coordinates":[8.359775934097,48.8176034864726]},"properties":{"stop_id":"de:08216:32148","stop_name":"Michelbach Mühlplatz","zone_id":"0371","stop_url":"","location_type":null,"parent_station":"","agency_key":"kvv","agency_name":"VBK GmbH","routes":[{"route_id":"8-253-C-s17-1","route_short_name":"253 (RVS)","route_long_name":""}]}},{"type":"Feature","geometry":{"type":"Point","coordinates":[8.3510353263813,48.8180057069786]},"properties":{"stop_id":"de:08216:32149","stop_name":"Michelbach Kirche","zone_id":"0371","stop_url":"","location_type":null,"parent_station":"","agency_key":"kvv","agency_name":"VBK GmbH","routes":[{"route_id":"8-253-C-s17-1","route_short_name":"253 (RVS)","route_long_name":""}]}},{"type":"Feature","geometry":{"type":"Point","coordinates":[8.35491604840924,48.817059300651]},"properties":{"stop_id":"de:08216:32150","stop_name":"Michelbach Feldstraße","zone_id":"0371","stop_url":"","location_type":null,"parent_station":"","agency_key":"kvv","agency_name":"VBK GmbH","routes":[{"route_id":"8-253-C-s17-1","route_short_name":"253 (RVS)","route_long_name":""}]}},{"type":"Feature","geometry":{"type":"Point","coordinates":[8.33320376798905,48.8034704851871]},"properties":{"stop_id":"de:08216:32155","stop_name":"Gaggenau Waldfriedhof","zone_id":"0371","stop_url":"","location_type":null,"parent_station":"","agency_key":"kvv","agency_name":"VBK GmbH","routes":[{"route_id":"8-253-C-s17-1","route_short_name":"253 (RVS)","route_long_name":""}]}},{"type":"Feature","geometry":{"type":"Point","coordinates":[8.32768811214379,48.8012575910629]},"properties":{"stop_id":"de:08216:32157","stop_name":"Gaggenau Michelbacher Str.","zone_id":"0371","stop_url":"","location_type":null,"parent_station":"","agency_key":"kvv","agency_name":"VBK GmbH","routes":[{"route_id":"8-253-C-s17-1","route_short_name":"253 (RVS)","route_long_name":""}]}},{"type":"Feature","geometry":{"type":"Point","coordinates":[8.3203039605073,48.8048431404957]},"properties":{"stop_id":"de:08216:32160:2:12","stop_name":"Gaggenau Bahnhof","zone_id":"0371","stop_url":"","location_type":null,"parent_station":"Parent32160","agency_key":"kvv","agency_name":"VBK GmbH","routes":[{"route_id":"11-214-C-s17-3","route_short_name":"214 (BBL)","route_long_name":""},{"route_id":"8-240-S-s17-1","route_short_name":"240s (RVS)","route_long_name":""},{"route_id":"8-251-C-s17-1","route_short_name":"251 (RVS)","route_long_name":""},{"route_id":"8-252-S-s17-1","route_short_name":"252s (RVS)","route_long_name":""},{"route_id":"8-253-C-s17-1","route_short_name":"253 (RVS)","route_long_name":""}]}},{"type":"Feature","geometry":{"type":"Point","coordinates":[8.38014074159083,48.8398035955786]},"properties":{"stop_id":"de:08216:32161:0:1","stop_name":"Freiolsheim Friedhof","zone_id":"0371","stop_url":"","location_type":null,"parent_station":"Parent32161","agency_key":"kvv","agency_name":"VBK GmbH","routes":[{"route_id":"8-253-C-s17-1","route_short_name":"253 (RVS)","route_long_name":""}]}},{"type":"Feature","geometry":{"type":"Point","coordinates":[8.35053226982213,48.8211228064709]},"properties":{"stop_id":"de:08216:32712","stop_name":"Michelbach Moosbronner Str.","zone_id":"0371","stop_url":"","location_type":null,"parent_station":"","agency_key":"kvv","agency_name":"VBK GmbH","routes":[{"route_id":"8-253-C-s17-1","route_short_name":"253 (RVS)","route_long_name":""}]}},{"type":"Feature","geometry":{"type":"Point","coordinates":[8.36618990522651,48.8328146380981]},"properties":{"stop_id":"de:08216:34783","stop_name":"Freiolsheim Mayersbild","zone_id":"0371","stop_url":"","location_type":null,"parent_station":"","agency_key":"kvv","agency_name":"VBK GmbH","routes":[{"route_id":"8-253-C-s17-1","route_short_name":"253 (RVS)","route_long_name":""}]}},{"type":"Feature","geometry":{"type":"Point","coordinates":[8.37431965854892,48.8457747748553]},"properties":{"stop_id":"de:08216:8119:1:2","stop_name":"Freiolsheim Rathaus","zone_id":"0371","stop_url":"","location_type":null,"parent_station":"Parent8119","agency_key":"kvv","agency_name":"VBK GmbH","routes":[{"route_id":"8-101-C-s17-1","route_short_name":"101 (RVS)","route_long_name":""},{"route_id":"8-253-C-s17-1","route_short_name":"253 (RVS)","route_long_name":""}]}},{"type":"Feature","geometry":{"type":"Point","coordinates":[8.37564018201676,48.8445687722573]},"properties":{"stop_id":"de:08216:8120:1:1","stop_name":"Freiolsheim Post","zone_id":"0371","stop_url":"","location_type":null,"parent_station":"Parent8120","agency_key":"kvv","agency_name":"VBK GmbH","routes":[{"route_id":"8-101-C-s17-1","route_short_name":"101 (RVS)","route_long_name":""},{"route_id":"8-253-C-s17-1","route_short_name":"253 (RVS)","route_long_name":""}]}},{"type":"Feature","geometry":{"type":"Point","coordinates":[8.37643968261974,48.8443027383625]},"properties":{"stop_id":"de:08216:8120:1:2","stop_name":"Freiolsheim Post","zone_id":"0371","stop_url":"","location_type":null,"parent_station":"Parent8120","agency_key":"kvv","agency_name":"VBK GmbH","routes":[{"route_id":"8-101-C-s17-1","route_short_name":"101 (RVS)","route_long_name":""},{"route_id":"8-253-C-s17-1","route_short_name":"253 (RVS)","route_long_name":""}]}},{"type":"Feature","geometry":{"type":"Point","coordinates":[8.38050006770453,48.8409269410953]},"properties":{"stop_id":"de:08216:8121:1:1","stop_name":"Freiolsheim Waldparkplatz","zone_id":"0371","stop_url":"","location_type":null,"parent_station":"Parent8121","agency_key":"kvv","agency_name":"VBK GmbH","routes":[{"route_id":"8-101-C-s17-1","route_short_name":"101 (RVS)","route_long_name":""},{"route_id":"8-253-C-s17-1","route_short_name":"253 (RVS)","route_long_name":""}]}},{"type":"Feature","geometry":{"type":"Point","coordinates":[8.38044616878747,48.840731835524]},"properties":{"stop_id":"de:08216:8121:1:2","stop_name":"Freiolsheim Waldparkplatz","zone_id":"0371","stop_url":"","location_type":null,"parent_station":"Parent8121","agency_key":"kvv","agency_name":"VBK GmbH","routes":[{"route_id":"8-101-C-s17-1","route_short_name":"101 (RVS)","route_long_name":""},{"route_id":"8-253-C-s17-1","route_short_name":"253 (RVS)","route_long_name":""}]}}]}