{"type":"FeatureCollection","features":[{"type":"Feature","geometry":{"type":"Point","coordinates":[8.13746086755216,48.6651252432098]},"properties":{"stop_id":"de:08216:32099:0:4","stop_name":"Hub","zone_id":"0391","stop_url":"","location_type":null,"parent_station":"Parent32099","agency_key":"kvv","agency_name":"VBK GmbH","routes":[{"route_id":"27-273-C-s17-1","route_short_name":"273 (Faller)","route_long_name":""}]}},{"type":"Feature","geometry":{"type":"Point","coordinates":[8.15072898430045,48.6695451362929]},"properties":{"stop_id":"de:08216:32207:0:2","stop_name":"Waldmatt Waldmattstraße","zone_id":"0391","stop_url":"","location_type":null,"parent_station":"Parent32207","agency_key":"kvv","agency_name":"VBK GmbH","routes":[{"route_id":"27-273-C-s17-1","route_short_name":"273 (Faller)","route_long_name":""},{"route_id":"8-264-C-s17-1","route_short_name":"264 (RVS)","route_long_name":""}]}},{"type":"Feature","geometry":{"type":"Point","coordinates":[8.16644950177473,48.6600226027094]},"properties":{"stop_id":"de:08216:32211:0:2","stop_name":"Neusatz (Baden) Wörth","zone_id":"0391","stop_url":"","location_type":null,"parent_station":"Parent32211","agency_key":"kvv","agency_name":"VBK GmbH","routes":[{"route_id":"27-273-C-s17-1","route_short_name":"273 (Faller)","route_long_name":""},{"route_id":"8-264-C-s17-1","route_short_name":"264 (RVS)","route_long_name":""}]}},{"type":"Feature","geometry":{"type":"Point","coordinates":[8.14786335854371,48.6589901451704]},"properties":{"stop_id":"de:08216:32212:1:1","stop_name":"Neusatz Rathaus (Drei-Tore)","zone_id":"0391","stop_url":"","location_type":null,"parent_station":"Parent32212","agency_key":"kvv","agency_name":"VBK GmbH","routes":[{"route_id":"27-273-C-s17-1","route_short_name":"273 (Faller)","route_long_name":""},{"route_id":"8-264-C-s17-1","route_short_name":"264 (RVS)","route_long_name":""}]}},{"type":"Feature","geometry":{"type":"Point","coordinates":[8.14433297947663,48.6612745774466]},"properties":{"stop_id":"de:08216:32213:0:2","stop_name":"Neusatz (Baden) Löwen","zone_id":"0391","stop_url":"","location_type":null,"parent_station":"Parent32213","agency_key":"kvv","agency_name":"VBK GmbH","routes":[{"route_id":"27-273-C-s17-1","route_short_name":"273 (Faller)","route_long_name":""},{"route_id":"8-264-C-s17-1","route_short_name":"264 (RVS)","route_long_name":""}]}},{"type":"Feature","geometry":{"type":"Point","coordinates":[8.16237115038426,48.6587171930914]},"properties":{"stop_id":"de:08216:32216:0:2","stop_name":"Neusatz (Baden) Bach","zone_id":"0391","stop_url":"","location_type":null,"parent_station":"Parent32216","agency_key":"kvv","agency_name":"VBK GmbH","routes":[{"route_id":"27-273-C-s17-1","route_short_name":"273 (Faller)","route_long_name":""},{"route_id":"8-264-C-s17-1","route_short_name":"264 (RVS)","route_long_name":""}]}},{"type":"Feature","geometry":{"type":"Point","coordinates":[8.13259199871155,48.6906010472381]},"properties":{"stop_id":"de:08216:32219:0:2","stop_name":"Bühl Tankstelle Jäger","zone_id":"0391","stop_url":"","location_type":null,"parent_station":"Parent32219","agency_key":"kvv","agency_name":"VBK GmbH","routes":[{"route_id":"27-273-C-s17-1","route_short_name":"273 (Faller)","route_long_name":""},{"route_id":"27-275-C-s17-1","route_short_name":"275 (Faller)","route_long_name":""},{"route_id":"8-262-C-s17-1","route_short_name":"262 (RVS)","route_long_name":""},{"route_id":"8-262-C-s17-2","route_short_name":"262 (RVS)","route_long_name":""},{"route_id":"8-264-C-s17-1","route_short_name":"264 (RVS)","route_long_name":""},{"route_id":"8-265-C-s17-1","route_short_name":"265 (RVS)","route_long_name":""},{"route_id":"8-266-C-s17-1","route_short_name":"266 (RVS)","route_long_name":""}]}},{"type":"Feature","geometry":{"type":"Point","coordinates":[8.13501744997901,48.6960741423938]},"properties":{"stop_id":"de:08216:32221:2:1","stop_name":"Bühl Rathaus","zone_id":"0391","stop_url":"","location_type":null,"parent_station":"Parent32221","agency_key":"kvv","agency_name":"VBK GmbH","routes":[{"route_id":"11-214-C-s17-3","route_short_name":"214 (BBL)","route_long_name":""},{"route_id":"27-271-C-s17-1","route_short_name":"271 (Faller)","route_long_name":""},{"route_id":"27-273-C-s17-1","route_short_name":"273 (Faller)","route_long_name":""},{"route_id":"27-275-C-s17-1","route_short_name":"275 (Faller)","route_long_name":""},{"route_id":"8-262-C-s17-1","route_short_name":"262 (RVS)","route_long_name":""},{"route_id":"8-262-C-s17-2","route_short_name":"262 (RVS)","route_long_name":""},{"route_id":"8-263-C-s17-1","route_short_name":"263 (RVS)","route_long_name":""},{"route_id":"8-264-C-s17-1","route_short_name":"264 (RVS)","route_long_name":""},{"route_id":"8-265-C-s17-1","route_short_name":"265 (RVS)","route_long_name":""},{"route_id":"8-266-C-s17-1","route_short_name":"266 (RVS)","route_long_name":""}]}},{"type":"Feature","geometry":{"type":"Point","coordinates":[8.1306336713919,48.6978766350357]},"properties":{"stop_id":"de:08216:32227:3:3","stop_name":"Bühl (Baden)","zone_id":"0391","stop_url":"","location_type":null,"parent_station":"Parent32227","agency_key":"kvv","agency_name":"VBK GmbH","routes":[{"route_id":"27-272-C-s17-1","route_short_name":"272 (Faller)","route_long_name":""},{"route_id":"27-273-C-s17-1","route_short_name":"273 (Faller)","route_long_name":""}]}},{"type":"Feature","geometry":{"type":"Point","coordinates":[8.14823166781025,48.6589486090799]},"properties":{"stop_id":"de:08216:33082:1:2","stop_name":"Neusatz Rathaus (Schwarzwald)","zone_id":"0391","stop_url":"","location_type":null,"parent_station":"Parent33082","agency_key":"kvv","agency_name":"VBK GmbH","routes":[{"route_id":"27-273-C-s17-1","route_short_name":"273 (Faller)","route_long_name":""}]}},{"type":"Feature","geometry":{"type":"Point","coordinates":[8.13978750413835,48.6683645585013]},"properties":{"stop_id":"de:08216:33124:0:1","stop_name":"Waldmatt Hard","zone_id":"0391","stop_url":"","location_type":null,"parent_station":"","agency_key":"kvv","agency_name":"VBK GmbH","routes":[{"route_id":"27-273-C-s17-1","route_short_name":"273 (Faller)","route_long_name":""},{"route_id":"8-264-C-s17-1","route_short_name":"264 (RVS)","route_long_name":""}]}},{"type":"Feature","geometry":{"type":"Point","coordinates":[8.14004801557078,48.6863549861766]},"properties":{"stop_id":"de:08216:34600:0:1","stop_name":"Bühl Krankenhaus","zone_id":"0391","stop_url":"","location_type":null,"parent_station":"","agency_key":"kvv","agency_name":"VBK GmbH","routes":[{"route_id":"27-271-C-s17-1","route_short_name":"271 (Faller)","route_long_name":""},{"route_id":"27-273-C-s17-1","route_short_name":"273 (Faller)","route_long_name":""}]}},{"type":"Feature","geometry":{"type":"Point","coordinates":[8.14356042833218,48.6774109936952]},"properties":{"stop_id":"de:08216:34601:0:2","stop_name":"Rittersbach Haus Roth","zone_id":"0391","stop_url":"","location_type":null,"parent_station":"Parent34601","agency_key":"kvv","agency_name":"VBK GmbH","routes":[{"route_id":"27-273-C-s17-1","route_short_name":"273 (Faller)","route_long_name":""}]}},{"type":"Feature","geometry":{"type":"Point","coordinates":[8.14868082545237,48.6719418021116]},"properties":{"stop_id":"de:08216:34602:0:2","stop_name":"Waldmatt Wolfhagweg","zone_id":"0391","stop_url":"","location_type":null,"parent_station":"Parent34602","agency_key":"kvv","agency_name":"VBK GmbH","routes":[{"route_id":"27-273-C-s17-1","route_short_name":"273 (Faller)","route_long_name":""}]}},{"type":"Feature","geometry":{"type":"Point","coordinates":[8.1475219987357,48.6691891861024]},"properties":{"stop_id":"de:08216:34603:0:2","stop_name":"Waldmatt Panoramastraße","zone_id":"0391","stop_url":"","location_type":null,"parent_station":"Parent34603","agency_key":"kvv","agency_name":"VBK GmbH","routes":[{"route_id":"27-273-C-s17-1","route_short_name":"273 (Faller)","route_long_name":""}]}},{"type":"Feature","geometry":{"type":"Point","coordinates":[8.14612062689228,48.656830223076]},"properties":{"stop_id":"de:08216:34604:0:1","stop_name":"Neusatz (Baden) Im Heizler","zone_id":"0391","stop_url":"","location_type":null,"parent_station":"Parent34604","agency_key":"kvv","agency_name":"VBK GmbH","routes":[{"route_id":"27-273-C-s17-1","route_short_name":"273 (Faller)","route_long_name":""}]}},{"type":"Feature","geometry":{"type":"Point","coordinates":[8.1531095198037,48.6551034056035]},"properties":{"stop_id":"de:08216:34605:0:1","stop_name":"Neusatz (Baden) Dreiröhrenbr.","zone_id":"0391","stop_url":"","location_type":null,"parent_station":"Parent34605","agency_key":"kvv","agency_name":"VBK GmbH","routes":[{"route_id":"27-273-C-s17-1","route_short_name":"273 (Faller)","route_long_name":""}]}},{"type":"Feature","geometry":{"type":"Point","coordinates":[8.15741245001523,48.6557383591102]},"properties":{"stop_id":"de:08216:34606:0:1","stop_name":"Neusatz (Baden) Tannenweg","zone_id":"0391","stop_url":"","location_type":null,"parent_station":"Parent34606","agency_key":"kvv","agency_name":"VBK GmbH","routes":[{"route_id":"27-273-C-s17-1","route_short_name":"273 (Faller)","route_long_name":""}]}},{"type":"Feature","geometry":{"type":"Point","coordinates":[8.15820296746536,48.6573168070083]},"properties":{"stop_id":"de:08216:34607:0:1","stop_name":"Neusatz (Baden) Kirchbühlstraße","zone_id":"0391","stop_url":"","location_type":null,"parent_station":"Parent34607","agency_key":"kvv","agency_name":"VBK GmbH","routes":[{"route_id":"27-273-C-s17-1","route_short_name":"273 (Faller)","route_long_name":""}]}},{"type":"Feature","geometry":{"type":"Point","coordinates":[8.17280059083434,48.663908963007]},"properties":{"stop_id":"de:08216:34608:0:2","stop_name":"Neusatzeck Kloster","zone_id":"0391","stop_url":"","location_type":null,"parent_station":"Parent34608","agency_key":"kvv","agency_name":"VBK GmbH","routes":[{"route_id":"27-273-C-s17-1","route_short_name":"273 (Faller)","route_long_name":""},{"route_id":"8-264-C-s17-1","route_short_name":"264 (RVS)","route_long_name":""}]}},{"type":"Feature","geometry":{"type":"Point","coordinates":[8.18202628880353,48.6665016810086]},"properties":{"stop_id":"de:08216:34609:0:2","stop_name":"Immenstein","zone_id":"0391","stop_url":"","location_type":null,"parent_station":"Parent34609","agency_key":"kvv","agency_name":"VBK GmbH","routes":[{"route_id":"27-273-C-s17-1","route_short_name":"273 (Faller)","route_long_name":""},{"route_id":"8-264-C-s17-1","route_short_name":"264 (RVS)","route_long_name":""}]}},{"type":"Feature","geometry":{"type":"Point","coordinates":[8.17633995305426,48.6646506007693]},"properties":{"stop_id":"de:08216:34663:0:1","stop_name":"Neusatzeck Sommerseite","zone_id":"0391","stop_url":"","location_type":null,"parent_station":"","agency_key":"kvv","agency_name":"VBK GmbH","routes":[{"route_id":"27-273-C-s17-1","route_short_name":"273 (Faller)","route_long_name":""}]}},{"type":"Feature","geometry":{"type":"Point","coordinates":[8.13736205287089,48.6803707532353]},"properties":{"stop_id":"de:08216:34714:0:2","stop_name":"Rittersbach Gasthaus Blume","zone_id":"0391","stop_url":"","location_type":null,"parent_station":"Parent34714","agency_key":"kvv","agency_name":"VBK GmbH","routes":[{"route_id":"27-271-C-s17-1","route_short_name":"271 (Faller)","route_long_name":""},{"route_id":"27-273-C-s17-1","route_short_name":"273 (Faller)","route_long_name":""}]}}]}