{"type":"FeatureCollection","features":[{"type":"Feature","geometry":{"type":"Point","coordinates":[8.66666738465348,48.8890652085087]},"properties":{"stop_id":"de:08231:3991:1:1","stop_name":"Brötzingen Mitte","zone_id":"","stop_url":"","location_type":null,"parent_station":"Parent25105","agency_key":"kvv","agency_name":"VBK GmbH","routes":[{"route_id":"22-16-E-s17-1","route_short_name":"S6 (AVG)","route_long_name":""}]}},{"type":"Feature","geometry":{"type":"Point","coordinates":[8.67243456877832,48.8919061995678]},"properties":{"stop_id":"de:08231:3993:1:1","stop_name":"Pforzheim Maihälden","zone_id":"","stop_url":"","location_type":null,"parent_station":"Parent25104","agency_key":"kvv","agency_name":"VBK GmbH","routes":[{"route_id":"22-16-E-s17-1","route_short_name":"S6 (AVG)","route_long_name":""}]}},{"type":"Feature","geometry":{"type":"Point","coordinates":[8.66240038705331,48.8858460110889]},"properties":{"stop_id":"de:08231:3994:1:1","stop_name":"Brötzingen Sandweg","zone_id":"","stop_url":"","location_type":null,"parent_station":"","agency_key":"kvv","agency_name":"VBK GmbH","routes":[{"route_id":"22-16-E-s17-1","route_short_name":"S6 (AVG)","route_long_name":""}]}},{"type":"Feature","geometry":{"type":"Point","coordinates":[8.65336333529381,48.8818231997336]},"properties":{"stop_id":"de:08231:3995:1:1","stop_name":"Brötzingen Wohnlichstraße","zone_id":"","stop_url":"","location_type":null,"parent_station":"","agency_key":"kvv","agency_name":"VBK GmbH","routes":[{"route_id":"22-16-E-s17-1","route_short_name":"S6 (AVG)","route_long_name":""}]}},{"type":"Feature","geometry":{"type":"Point","coordinates":[8.70218677099251,48.8939320051949]},"properties":{"stop_id":"de:08231:50:2:2","stop_name":"Pforzheim Hbf","zone_id":"","stop_url":"","location_type":null,"parent_station":"Parent1626","agency_key":"kvv","agency_name":"VBK GmbH","routes":[{"route_id":"22-15-E-s17-10","route_short_name":"S5 (AVG)","route_long_name":""},{"route_id":"22-15-E-s17-11","route_short_name":"S5 (AVG)","route_long_name":""},{"route_id":"22-15-E-s17-12","route_short_name":"S5 (AVG)","route_long_name":""},{"route_id":"22-15-E-s17-13","route_short_name":"S5 (AVG)","route_long_name":""},{"route_id":"22-15-E-s17-4","route_short_name":"S5 (AVG)","route_long_name":""},{"route_id":"22-15-E-s17-7","route_short_name":"S5 (AVG)","route_long_name":""},{"route_id":"22-15-E-s17-9","route_short_name":"S5 (AVG)","route_long_name":""},{"route_id":"22-16-E-s17-1","route_short_name":"S6 (AVG)","route_long_name":""}]}},{"type":"Feature","geometry":{"type":"Point","coordinates":[8.54938334114251,48.7508019884514]},"properties":{"stop_id":"de:08235:402:1:1","stop_name":"Bad Wildbad Uhlandplatz","zone_id":"","stop_url":"","location_type":null,"parent_station":"","agency_key":"kvv","agency_name":"VBK GmbH","routes":[{"route_id":"22-16-E-s17-1","route_short_name":"S6 (AVG)","route_long_name":""}]}},{"type":"Feature","geometry":{"type":"Point","coordinates":[8.57154477920482,48.7766961970548]},"properties":{"stop_id":"de:08235:420:2:1","stop_name":"Calmbach","zone_id":"","stop_url":"","location_type":null,"parent_station":"Parent25094","agency_key":"kvv","agency_name":"VBK GmbH","routes":[{"route_id":"22-16-E-s17-1","route_short_name":"S6 (AVG)","route_long_name":""}]}},{"type":"Feature","geometry":{"type":"Point","coordinates":[8.58178557344521,48.8077658244756]},"properties":{"stop_id":"de:08235:422:1:1","stop_name":"Höfen (Enz) Nord","zone_id":"","stop_url":"","location_type":null,"parent_station":"","agency_key":"kvv","agency_name":"VBK GmbH","routes":[{"route_id":"22-16-E-s17-1","route_short_name":"S6 (AVG)","route_long_name":""}]}},{"type":"Feature","geometry":{"type":"Point","coordinates":[8.56649624730736,48.7733632070905]},"properties":{"stop_id":"de:08235:423:1:1","stop_name":"Calmbach Süd","zone_id":"","stop_url":"","location_type":null,"parent_station":"","agency_key":"kvv","agency_name":"VBK GmbH","routes":[{"route_id":"22-16-E-s17-1","route_short_name":"S6 (AVG)","route_long_name":""}]}},{"type":"Feature","geometry":{"type":"Point","coordinates":[8.55510560950314,48.763943206178]},"properties":{"stop_id":"de:08235:424:1:1","stop_name":"Bad Wildbad Nord","zone_id":"","stop_url":"","location_type":null,"parent_station":"","agency_key":"kvv","agency_name":"VBK GmbH","routes":[{"route_id":"22-16-E-s17-1","route_short_name":"S6 (AVG)","route_long_name":""}]}},{"type":"Feature","geometry":{"type":"Point","coordinates":[8.58137234841445,48.7989676753724]},"properties":{"stop_id":"de:08235:8940:1:2","stop_name":"Höfen (Enz)","zone_id":"","stop_url":"","location_type":null,"parent_station":"Parent25093","agency_key":"kvv","agency_name":"VBK GmbH","routes":[{"route_id":"22-16-E-s17-1","route_short_name":"S6 (AVG)","route_long_name":""}]}},{"type":"Feature","geometry":{"type":"Point","coordinates":[8.55112607279394,48.7556822290164]},"properties":{"stop_id":"de:08235:8960:50:1","stop_name":"Bad Wildbad","zone_id":"","stop_url":"","location_type":null,"parent_station":"Parent25095","agency_key":"kvv","agency_name":"VBK GmbH","routes":[{"route_id":"22-16-E-s17-1","route_short_name":"S6 (AVG)","route_long_name":""}]}},{"type":"Feature","geometry":{"type":"Point","coordinates":[8.55100929180699,48.75520251764]},"properties":{"stop_id":"de:08235:8960:51:2","stop_name":"Bad Wildbad","zone_id":"","stop_url":"","location_type":null,"parent_station":"Parent25095","agency_key":"kvv","agency_name":"VBK GmbH","routes":[{"route_id":"22-16-E-s17-1","route_short_name":"S6 (AVG)","route_long_name":""}]}},{"type":"Feature","geometry":{"type":"Point","coordinates":[8.55050623524781,48.7486341567393]},"properties":{"stop_id":"de:08235:8961:2:1","stop_name":"Bad Wildbad Kurpark","zone_id":"","stop_url":"","location_type":null,"parent_station":"Parent25113","agency_key":"kvv","agency_name":"VBK GmbH","routes":[{"route_id":"22-16-E-s17-1","route_short_name":"S6 (AVG)","route_long_name":""}]}},{"type":"Feature","geometry":{"type":"Point","coordinates":[8.6452335819714,48.874202009222]},"properties":{"stop_id":"de:08236:1090:1:1","stop_name":"Birkenfeld (Enz)","zone_id":"","stop_url":"","location_type":null,"parent_station":"Parent34534","agency_key":"kvv","agency_name":"VBK GmbH","routes":[{"route_id":"22-16-E-s17-1","route_short_name":"S6 (AVG)","route_long_name":""}]}},{"type":"Feature","geometry":{"type":"Point","coordinates":[8.60207851571629,48.8495403901537]},"properties":{"stop_id":"de:08236:1490:1:1","stop_name":"Neuenbürg (Enz)","zone_id":"","stop_url":"","location_type":null,"parent_station":"Parent25091","agency_key":"kvv","agency_name":"VBK GmbH","routes":[{"route_id":"22-16-E-s17-1","route_short_name":"S6 (AVG)","route_long_name":""}]}},{"type":"Feature","geometry":{"type":"Point","coordinates":[8.59896136167996,48.8444505351452]},"properties":{"stop_id":"de:08236:1491:1:1","stop_name":"Neuenbürg (Enz) Süd","zone_id":"","stop_url":"","location_type":null,"parent_station":"Parent25092","agency_key":"kvv","agency_name":"VBK GmbH","routes":[{"route_id":"22-16-E-s17-1","route_short_name":"S6 (AVG)","route_long_name":""}]}},{"type":"Feature","geometry":{"type":"Point","coordinates":[8.59033753495121,48.836935994101]},"properties":{"stop_id":"de:08236:1492:2:1","stop_name":"Neuenbürg (Enz) Freibad","zone_id":"","stop_url":"","location_type":null,"parent_station":"Parent25108","agency_key":"kvv","agency_name":"VBK GmbH","routes":[{"route_id":"22-16-E-s17-1","route_short_name":"S6 (AVG)","route_long_name":""}]}},{"type":"Feature","geometry":{"type":"Point","coordinates":[8.57781501988885,48.8170119798656]},"properties":{"stop_id":"de:08236:1493:3:1","stop_name":"Eyachbrücke","zone_id":"","stop_url":"","location_type":null,"parent_station":"Parent25109","agency_key":"kvv","agency_name":"VBK GmbH","routes":[{"route_id":"22-16-E-s17-1","route_short_name":"S6 (AVG)","route_long_name":""}]}},{"type":"Feature","geometry":{"type":"Point","coordinates":[8.57933317271922,48.830585298508]},"properties":{"stop_id":"de:08236:1494:2:1","stop_name":"Rotenbach (Enz)","zone_id":"","stop_url":"","location_type":null,"parent_station":"Parent25115","agency_key":"kvv","agency_name":"VBK GmbH","routes":[{"route_id":"22-16-E-s17-1","route_short_name":"S6 (AVG)","route_long_name":""}]}}]}